{"_id":{"$oid":"5ba49e8760e08dc211ae14ca"},"name":"十指恋时尚美甲","province":"海南","city":"三亚","county":"三亚","areaCode":898,"tel":"38213975;13700436971","area":"明珠广场","add":"解放路595号一楼","type":"丽人","module":"美甲","longtide":109.50326,"latitude":18.255876}
{"_id":{"$oid":"5ba49e8760e08dc211ae14c4"},"name":"水云阁水疗养生休闲会所","province":"海南","city":"三亚","county":"三亚","areaCode":898,"tel":{"$numberLong":"13158995621"},"area":"天涯区","add":"椰林酒店","type":"丽人","module":"美容/SPA","longtide":109.491045,"latitude":18.286681}
{"_id":{"$oid":"5ba49e8760e08dc211ae14cc"},"name":"诗全发型","province":"海南","city":"三亚","county":"三亚","areaCode":898,"tel":"88895199;15008998190","area":"国际购物中心","add":"国际购物中心3楼B区","type":"丽人","module":"美发","longtide":109.50649,"latitude":18.23657}
{"_id":{"$oid":"5ba49e8760e08dc211ae14ce"},"name":"康美养生沙龙","province":"海南","city":"三亚","county":"三亚","areaCode":898,"tel":"","area":"迎宾路","add":"迎宾路天域小区御峰阁D单元403","type":"丽人","module":"美容/SPA","longtide":109.528491,"latitude":18.286803}
{"_id":{"$oid":"5ba49e8760e08dc211ae14d0"},"name":"朵色美甲","province":"海南","city":"三亚","county":"三亚","areaCode":898,"tel":88215220,"area":"商品街","add":"商品街四巷33号","type":"丽人","module":"美甲","longtide":109.514607,"latitude":18.246193}
{"_id":{"$oid":"5ba49e8760e08dc211ae14d2"},"name":"慧馨美容室","province":"海南","city":"三亚","county":"三亚","areaCode":898,"tel":"15109881003;15008057756","area":"吉阳区","add":"吉阳镇老市场上海世家","type":"丽人","module":"SPA美体","longtide":109.592269915,"latitude":18.2856003592}
{"_id":{"$oid":"5ba49e8760e08dc211ae14d4"},"name":"圣心源美容养生工作室","province":"海南","city":"三亚","county":"三亚","areaCode":898,"tel":"18976293249;88268918","area":"解放路","add":"解放路570号衍宏现代城15楼1516A室","type":"丽人","module":"SPA美体","longtide":109.504391,"latitude":18.253316}
{"_id":{"$oid":"5ba49e8760e08dc211ae14c6"},"name":"权健一德养生馆","province":"海南","city":"三亚","county":"三亚","areaCode":898,"tel":"15008067520;15808971959","area":"吉阳区","add":"吉阳镇新红路福海苑B区3栋一单元303室","type":"丽人","module":"美容/SPA","longtide":109.614522,"latitude":18.292183}
{"_id":{"$oid":"5ba49e8760e08dc211ae14d6"},"name":".M.ini nail 日式美甲美睫","province":"海南","city":"三亚","county":"三亚","areaCode":898,"tel":{"$numberLong":"15595893597"},"area":"商品街","add":"商品街六巷34号","type":"丽人","module":"美甲","longtide":109.514856,"latitude":18.247044}
{"_id":{"$oid":"5ba49e8760e08dc211ae14c8"},"name":"青凡堂纹身刺青培训工作室","province":"海南","city":"三亚","county":"三亚","areaCode":898,"tel":"17508990994;88273033","area":"天涯区","add":"解放路名城假日广场","type":"丽人","module":"纹身","longtide":109.503444,"latitude":18.258065}
